{
  "activities": [
    {
      "id": 1,
      "name": "Čišćenje rijeke Jadro",
      "description": "Čišćenje rijeke Jadro Čišćenje rijeke Jadro Čišćenje rijeke Jadro",
      "date": "2024-16-05",
      "location": "Izvor Jadra",
      "image": "../jadro.jpg",
      "association": "Most",
      "volunteers": [
        {
          "id": 1,
          "name": "Ivo",
          "surname": "Ivic"
        },
        {
          "id": 2,
          "name": "Ana",
          "surname": "Anic"
        },
        {
          "id": 3,
          "name": "Marko",
          "surname": "Markovic"
        },
        {
          "id": 4,
          "name": "Pero",
          "surname": "Perić"
        },
        {
          "id": 5,
          "name": "Ivan",
          "surname": "Ivandić"
        }
      ]
    },
    {
      "id": 2,
      "name": "Čišćenje rijeke Jadro",
      "description": "Čišćenje rijeke Jadro Čišćenje rijeke Jadro Čišćenje rijeke Jadro",
      "date": "2024-14-05",
      "location": "Split",
      "image": "../jadro.jpg",
      "association": "Most",
      "volunteers": [
        {
          "id": 1,
          "name": "Ivo",
          "surname": "Ivic"
        },
        {
          "id": 2,
          "name": "Ana",
          "surname": "Anic"
        },
        {
          "id": 3,
          "name": "Marko",
          "surname": "Markovic"
        },
        {
          "id": 4,
          "name": "Pero",
          "surname": "Perić"
        },
        {
          "id": 5,
          "name": "Ivan",
          "surname": "Ivandić"
        }
      ]
    },
    {
      "id": 3,
      "name": "Čišćenje rijeke Jadro",
      "description": "Čišćenje rijeke Jadro Čišćenje rijeke Jadro Čišćenje rijeke Jadro",
      "date": "2024-15-05",
      "location": "Izvor Jadra",
      "image": "../jadro.jpg",
      "association": "Most",
      "volunteers": [
        {
          "id": 1,
          "name": "Ivo",
          "surname": "Ivic"
        },
        {
          "id": 2,
          "name": "Ana",
          "surname": "Anic"
        },
        {
          "id": 3,
          "name": "Marko",
          "surname": "Markovic"
        },
        {
          "id": 4,
          "name": "Pero",
          "surname": "Perić"
        },
        {
          "id": 5,
          "name": "Ivan",
          "surname": "Ivandić"
        }
      ]
    },
    {
      "name": "Čišćenje rijeke Cetine",
      "date": "2024-06-27",
      "image": "../jadro.jpg",
      "location": "Omiš",
      "byAssociation": "true",
      "association": "Cetinjani",
      "description": "fsehfshfklsnfkdsnflijseoif fnjsdkcf sfisdf sf si dis efisfi os",
      "id": 4
    },
    {
      "name": "aaaaaaaaaa",
      "date": "2024-06-21",
      "image": "../jadro.jpg",
      "location": "SPLIT",
      "byAssociation": "false",
      "association": "",
      "description": "aaaaa",
      "id": 7
    },
    {
      "name": "bbbbbb",
      "date": "2024-05-25",
      "image": "../jadro.jpg",
      "location": "bbbbbbbbbbbb",
      "byAssociation": "true",
      "association": "Cetinjani",
      "description": "bbbbbbbb",
      "id": 8
    }
  ],
  "signedVolunteers": [
    {
      "id": 1,
      "name": "Anaiasdhdskv",
      "surname": "Anićf",
      "contact": "ansssa@gmail.com",
      "city": "Dubrovnik",
      "image": "../1.jpg",
      "activities": [
        "Ekologija",
        "Prijevoz",
        "Edukacija",
        "Razno"
      ]
    },
    {
      "id": 2,
      "name": "Ana",
      "surname": "Ivić",
      "contact": "ana@gmail.com",
      "city": "Split",
      "image": "../2.jpg",
      "activities": [
        "Ekologija",
        "Prijevoz"
      ]
    },
    {
      "id": 3,
      "name": "Ana",
      "surname": "Malik",
      "contact": "ana@gmail.com",
      "city": "Split",
      "image": "../3.jpg",
      "activities": [
        "Ekologija",
        "Prijevoz"
      ]
    },
    {
      "id": 4,
      "name": "Ana",
      "surname": "Anić",
      "contact": "ana@gmail.com",
      "city": "Dubrovnik",
      "image": "../4.jpg",
      "activities": [
        "Ekologija",
        "Prijevoz"
      ]
    },
    {
      "id": 5,
      "name": "Ana",
      "surname": "Horvat",
      "contact": "ana@gmail.com",
      "city": "Split",
      "image": "../5.jpg",
      "activities": [
        "Ekologija",
        "Prijevoz"
      ]
    },
    {
      "id": 6,
      "name": "Ana",
      "surname": "Horvat",
      "contact": "ana@gmail.com",
      "city": "Split",
      "image": "../6.jpg",
      "activities": [
        "Ekologija",
        "Prijevoz"
      ]
    },
    {
      "name": "Johng",
      "surname": "Beroo",
      "contact": "bero@gmail.com",
      "city": "Zadar",
      "image": "../7.jpg",
      "activities": [
        "Prijevoz",
        "Razno"
      ],
      "id": 7
    }
  ],
  "cities": [
    {
      "id": 1,
      "name": "Split"
    },
    {
      "id": 21,
      "name": "Zagreb"
    },
    {
      "id": 3,
      "name": "Zadar"
    },
    {
      "id": 4,
      "name": "Dubrovnik"
    }
  ],
  "associations": [
    {
      "id": 1,
      "name": "Cetinjani",
      "address": "aPut mosta 36",
      "city": "Dubrovnik",
      "approved": true
    },
    {
      "id": 3,
      "name": "APlusV",
      "address": "Put mosta 36",
      "city": "Split",
      "approved": true
    },
    {
      "id": 4,
      "name": "PlusV",
      "address": "zPut mosta 36",
      "city": "Zadar",
      "approved": true
    },
    {
      "id": 5,
      "name": "PlusV",
      "address": "hPut mosta 31",
      "city": "Split",
      "approved": false
    },
    {
      "id": 6,
      "name": "PlusV",
      "address": "Put mosta 32",
      "city": "Dubrovnik",
      "approved": false
    },
    {
      "name": "Nova udruga",
      "address": "Zrinjska 54",
      "city": "Zagreb",
      "approved": false,
      "id": 7
    },
    {
      "name": "KUD",
      "address": "Vukovarska 143",
      "city": "Split",
      "approved": false,
      "id": 8
    },
    {
      "name": "Boba udurga",
      "address": "Mostarska 67",
      "city": "Zadar",
      "approved": false,
      "id": 9
    },
    {
      "name": "Volonterska Udruga Rijeka",
      "address": "Riječki put 7",
      "city": "Zadar",
      "approved": false,
      "id": 10
    },
    {
      "name": "List",
      "address": "Kropni puut 3",
      "city": "Zagreb",
      "approved": false,
      "id": 11
    }
  ]
}